{"objects": [{
                "object_name": "post",
                "object_id": "28790",
                "title": "Politi\u010dka \u0160kola Josip Broz Tito",
                "lat": "46.0824547",
                "lng": "15.6819296",
                "author_name": "AndreJoosse",
                "terms": []
            }, {
                "object_name": "post",
                "object_id": "30897",
                "title": "Aegidium",
                "lat": "50.8307877",
                "lng": "4.3455148",
                "author_name": "AndreJoosse",
                "terms": []
            }, {
                "object_name": "post",
                "object_id": "30241",
                "title": "Sanatorium Iveria Tskaltubo",
                "lat": "42.3294716",
                "lng": "42.6036873",
                "author_name": "AndreJoosse",
                "terms": []
            }, {
                "object_name": "post",
                "object_id": "30212",
                "title": "Preu\u00dfisches Amtsgerichtsgef\u00e4ngnis",
                "lat": "52.4551582",
                "lng": "13.5783634",
                "author_name": "AndreJoosse",
                "terms": []
            }, {
                "object_name": "post",
                "object_id": "29993",
                "title": "Patent-Papierfabrik Hohenofen",
                "lat": "52.8239441",
                "lng": "12.4191227",
                "author_name": "AndreJoosse",
                "terms": []
            }, {
                "object_name": "post",
                "object_id": "21491",
                "title": "Voeders Van Simaey \u2013 Leroy",
                "lat": "50.9293442",
                "lng": "3.6405940",
                "author_name": "AndreJoosse",
                "terms": []
            }, {
                "object_name": "post",
                "object_id": "27298",
                "title": "Laboratorio de Energ\u00eda Solar Termoel\u00e9ctrica",
                "lat": "28.0578842",
                "lng": "-16.5279961",
                "author_name": "AndreJoosse",
                "terms": []
            }, {
                "object_name": "post",
                "object_id": "30083",
                "title": "Zeche Westerholt",
                "lat": "51.6025124",
                "lng": "7.0784431",
                "author_name": "AndreJoosse",
                "terms": []
            }, {
                "object_name": "post",
                "object_id": "33354",
                "title": "Brandweerwagen Depot Gent",
                "lat": "51.1732063",
                "lng": "3.7921579",
                "author_name": "AndreJoosse",
                "terms": []
            }, {
                "object_name": "post",
                "object_id": "25555",
                "title": "Pyramiden School",
                "lat": "78.6552124",
                "lng": "16.3205223",
                "author_name": "AndreJoosse",
                "terms": []
            }, {
                "object_name": "post",
                "object_id": "30638",
                "title": "Kammgarnspinnerei Meerane",
                "lat": "50.8552284",
                "lng": "12.4558611",
                "author_name": "AndreJoosse",
                "terms": []
            }, {
                "object_name": "post",
                "object_id": "31339",
                "title": "Emerald Summer Camp",
                "lat": "51.3306732",
                "lng": "30.1549816",
                "author_name": "AndreJoosse",
                "terms": []
            }, {
                "object_name": "post",
                "object_id": "31315",
                "title": "Zamoshnya",
                "lat": "51.2392197",
                "lng": "29.8889523",
                "author_name": "AndreJoosse",
                "terms": []
            }, {
                "object_name": "post",
                "object_id": "31291",
                "title": "Duga-1 Radar \u2013 The Russian Woodpecker",
                "lat": "51.3030777",
                "lng": "30.0608006",
                "author_name": "AndreJoosse",
                "terms": []
            }, {
                "object_name": "post",
                "object_id": "30944",
                "title": "Wojskowy Szpital Poradziecki",
                "lat": "51.1964531",
                "lng": "16.1298485",
                "author_name": "AndreJoosse",
                "terms": []
            }, {
                "object_name": "post",
                "object_id": "30187",
                "title": "Hotel Tbilisi Tskaltubo",
                "lat": "42.3273239",
                "lng": "42.5987396",
                "author_name": "AndreJoosse",
                "terms": []
            }, {
                "object_name": "post",
                "object_id": "30165",
                "title": "Hotel Medea Tskaltubo",
                "lat": "42.3221855",
                "lng": "42.5917397",
                "author_name": "AndreJoosse",
                "terms": []
            }, {
                "object_name": "post",
                "object_id": "22269",
                "title": "Gevangenis De Koepel",
                "lat": "52.3835602",
                "lng": "4.6460629",
                "author_name": "AndreJoosse",
                "terms": []
            }, {
                "object_name": "post",
                "object_id": "28809",
                "title": "Tskaltubo Bathhouse No. 5",
                "lat": "42.3255119",
                "lng": "42.6049118",
                "author_name": "AndreJoosse",
                "terms": []
            }, {
                "object_name": "post",
                "object_id": "28750",
                "title": "Cemit\u00e9rio de M\u00e1quinas a Vapor",
                "lat": "41.1311989",
                "lng": "-8.6208181",
                "author_name": "AndreJoosse",
                "terms": []
            }, {
                "object_name": "post",
                "object_id": "17795",
                "title": "Haus der Offiziere",
                "lat": "52.1639671",
                "lng": "13.4847851",
                "author_name": "AndreJoosse",
                "terms": []
            }, {
                "object_name": "post",
                "object_id": "28371",
                "title": "Heilst\u00e4tte Grabowsee",
                "lat": "52.7861938",
                "lng": "13.2831059",
                "author_name": "AndreJoosse",
                "terms": []
            }, {
                "object_name": "post",
                "object_id": "25245",
                "title": "Manoir de Cointe",
                "lat": "50.6172714",
                "lng": "5.5642142",
                "author_name": "AndreJoosse",
                "terms": []
            }, {
                "object_name": "post",
                "object_id": "27349",
                "title": "Compagnie de l\u2019Electrographite de la Meuse",
                "lat": "50.5702591",
                "lng": "5.3854299",
                "author_name": "AndreJoosse",
                "terms": []
            }, {
                "object_name": "post",
                "object_id": "27835",
                "title": "NPEA Ballenstedt",
                "lat": "51.7101898",
                "lng": "11.2361326",
                "author_name": "AndreJoosse",
                "terms": []
            }, {
                "object_name": "post",
                "object_id": "27735",
                "title": "Casa da Pra\u00e7a",
                "lat": "41.2596703",
                "lng": "-8.4003878",
                "author_name": "AndreJoosse",
                "terms": []
            }, {
                "object_name": "post",
                "object_id": "27228",
                "title": "Locomotivas da Linha do Corgo",
                "lat": "41.1599655",
                "lng": "-7.7850471",
                "author_name": "AndreJoosse",
                "terms": []
            }, {
                "object_name": "post",
                "object_id": "17952",
                "title": "Pathologische Anatomie & Dissectie",
                "lat": "51.0249176",
                "lng": "3.7283559",
                "author_name": "AndreJoosse",
                "terms": []
            }, {
                "object_name": "post",
                "object_id": "25847",
                "title": "Hospice G\u00e9n\u00e9ral de\u00a0Douai",
                "lat": "50.3682899",
                "lng": "3.0871179",
                "author_name": "AndreJoosse",
                "terms": []
            }, {
                "object_name": "post",
                "object_id": "25636",
                "title": "Gagarin Sport Complex Pyramiden",
                "lat": "78.6565170",
                "lng": "16.3093147",
                "author_name": "AndreJoosse",
                "terms": []
            }, {
                "object_name": "post",
                "object_id": "25621",
                "title": "Pyramiden Cultural Palace",
                "lat": "78.6556778",
                "lng": "16.3069458",
                "author_name": "AndreJoosse",
                "terms": []
            }, {
                "object_name": "post",
                "object_id": "25605",
                "title": "Pyramiden Cafeteria",
                "lat": "78.6550217",
                "lng": "16.3235493",
                "author_name": "AndreJoosse",
                "terms": []
            }, {
                "object_name": "post",
                "object_id": "25586",
                "title": "Pyramiden Farm",
                "lat": "78.6529465",
                "lng": "16.3247261",
                "author_name": "AndreJoosse",
                "terms": []
            }, {
                "object_name": "post",
                "object_id": "25535",
                "title": "Pyramiden Coal Mine",
                "lat": "78.6677322",
                "lng": "16.3190918",
                "author_name": "AndreJoosse",
                "terms": []
            }, {
                "object_name": "post",
                "object_id": "25512",
                "title": "Mali Tabor",
                "lat": "46.2112999",
                "lng": "15.6742001",
                "author_name": "AndreJoosse",
                "terms": []
            }, {
                "object_name": "post",
                "object_id": "25491",
                "title": "SAMGA, Silo B",
                "lat": "51.2420082",
                "lng": "4.4025760",
                "author_name": "AndreJoosse",
                "terms": []
            }, {
                "object_name": "post",
                "object_id": "25464",
                "title": "Atelier Loco d\u2019Ougree",
                "lat": "50.6031914",
                "lng": "5.5362992",
                "author_name": "AndreJoosse",
                "terms": []
            }, {
                "object_name": "post",
                "object_id": "25440",
                "title": "Agnetendal Peer",
                "lat": "51.1309471",
                "lng": "5.4530849",
                "author_name": "AndreJoosse",
                "terms": []
            }, {
                "object_name": "post",
                "object_id": "25120",
                "title": "Duk\u2019Eau",
                "lat": "50.4522209",
                "lng": "5.9596238",
                "author_name": "AndreJoosse",
                "terms": []
            }, {
                "object_name": "post",
                "object_id": "24953",
                "title": "Almivita Nutri\u00e7\u00e3o Animal",
                "lat": "40.5453758",
                "lng": "-8.1292143",
                "author_name": "AndreJoosse",
                "terms": []
            }, {
                "object_name": "post",
                "object_id": "24789",
                "title": "Pechiney Eurofoil Belgique S.A.",
                "lat": "50.5863342",
                "lng": "5.4458570",
                "author_name": "AndreJoosse",
                "terms": []
            }, {
                "object_name": "post",
                "object_id": "24884",
                "title": "Ecole de Natation Mangombroux",
                "lat": "50.5840874",
                "lng": "5.8843322",
                "author_name": "AndreJoosse",
                "terms": []
            }, {
                "object_name": "post",
                "object_id": "24829",
                "title": "Lokomotywownia Pyskowice",
                "lat": "50.3868523",
                "lng": "18.6133194",
                "author_name": "AndreJoosse",
                "terms": []
            }, {
                "object_name": "post",
                "object_id": "24857",
                "title": "Onze-Lieve-Vrouw van Deinsbekecollege",
                "lat": "50.8710556",
                "lng": "3.8085361",
                "author_name": "AndreJoosse",
                "terms": []
            }, {
                "object_name": "post",
                "object_id": "18899",
                "title": "Cokerie d\u2019Ougr\u00e9e",
                "lat": "50.6104202",
                "lng": "5.5283742",
                "author_name": "AndreJoosse",
                "terms": []
            }, {
                "object_name": "post",
                "object_id": "18873",
                "title": "SAMGA, Silo A",
                "lat": "51.2425385",
                "lng": "4.3999982",
                "author_name": "AndreJoosse",
                "terms": []
            }, {
                "object_name": "post",
                "object_id": "18652",
                "title": "Koterij van Meuntje Rot",
                "lat": "51.0357208",
                "lng": "4.3529019",
                "author_name": "AndreJoosse",
                "terms": []
            }, {
                "object_name": "post",
                "object_id": "22899",
                "title": "HFB Ougree",
                "lat": "50.6051064",
                "lng": "5.5473680",
                "author_name": "AndreJoosse",
                "terms": []
            }, {
                "object_name": "post",
                "object_id": "22882",
                "title": "Ch\u00e2teau du duc d\u2019Epernon",
                "lat": "48.7060814",
                "lng": "2.8618319",
                "author_name": "AndreJoosse",
                "terms": []
            }, {
                "object_name": "post",
                "object_id": "22860",
                "title": "Obserwatorium Astronomiczne Fort Ska\u0142a",
                "lat": "50.0535393",
                "lng": "19.8236694",
                "author_name": "AndreJoosse",
                "terms": []
            }, {
                "object_name": "post",
                "object_id": "22837",
                "title": "Centrale de Deux-Acren",
                "lat": "50.7270241",
                "lng": "3.8519931",
                "author_name": "AndreJoosse",
                "terms": []
            }, {
                "object_name": "post",
                "object_id": "22804",
                "title": "Fort Pancerny G\u0142\u00f3wny \u201944 Tonie\u2019",
                "lat": "50.1238441",
                "lng": "19.8955326",
                "author_name": "AndreJoosse",
                "terms": []
            }, {
                "object_name": "post",
                "object_id": "22785",
                "title": "Lokomotywownia Krak\u00f3w P\u0142asz\u00f3w",
                "lat": "50.0277710",
                "lng": "19.9866543",
                "author_name": "AndreJoosse",
                "terms": []
            }, {
                "object_name": "post",
                "object_id": "22295",
                "title": "RTT Lessive",
                "lat": "50.1296806",
                "lng": "5.1455569",
                "author_name": "AndreJoosse",
                "terms": []
            }, {
                "object_name": "post",
                "object_id": "21469",
                "title": "F\u00e1brica de Papel em Serpins",
                "lat": "40.1560326",
                "lng": "-8.2229671",
                "author_name": "AndreJoosse",
                "terms": []
            }, {
                "object_name": "post",
                "object_id": "20957",
                "title": "Hotel Chrysopras",
                "lat": "50.6734810",
                "lng": "11.2655764",
                "author_name": "AndreJoosse",
                "terms": []
            }, {
                "object_name": "post",
                "object_id": "18234",
                "title": "Sociedade de Porcelanas de Coimbra",
                "lat": "40.1977844",
                "lng": "-8.4198484",
                "author_name": "AndreJoosse",
                "terms": []
            }, {
                "object_name": "post",
                "object_id": "19394",
                "title": "Huis van Bewaring Schutterswei",
                "lat": "52.6261978",
                "lng": "4.7297845",
                "author_name": "AndreJoosse",
                "terms": []
            }, {
                "object_name": "post",
                "object_id": "19355",
                "title": "Haut-Fourneau 6 Seraing",
                "lat": "50.6066856",
                "lng": "5.5063019",
                "author_name": "AndreJoosse",
                "terms": []
            }, {
                "object_name": "post",
                "object_id": "19031",
                "title": "Zentralflughafen Tempelhof-Berlin",
                "lat": "52.4736099",
                "lng": "13.4016666",
                "author_name": "AndreJoosse",
                "terms": []
            }, {
                "object_name": "post",
                "object_id": "21216",
                "title": "DC-4 Trans Atlantic Airlines",
                "lat": "50.7515678",
                "lng": "3.8618240",
                "author_name": "AndreJoosse",
                "terms": []
            }, {
                "object_name": "post",
                "object_id": "16876",
                "title": "Victoria Barracks",
                "lat": "51.5120316",
                "lng": "7.8849878",
                "author_name": "AndreJoosse",
                "terms": []
            }, {
                "object_name": "post",
                "object_id": "25824",
                "title": "L\u2019\u00e9glise Sainte Marie",
                "lat": "50.4317131",
                "lng": "4.4488931",
                "author_name": "AndreJoosse",
                "terms": []
            }, {
                "object_name": "post",
                "object_id": "18674",
                "title": "Central Hidroel\u00e9ctrica da Companhia de Papel do Prado",
                "lat": "40.1522217",
                "lng": "-8.2419949",
                "author_name": "AndreJoosse",
                "terms": []
            }, {
                "object_name": "post",
                "object_id": "18347",
                "title": "Chateau Vyle",
                "lat": "50.4444656",
                "lng": "5.2624578",
                "author_name": "AndreJoosse",
                "terms": []
            }, {
                "object_name": "post",
                "object_id": "18331",
                "title": "Gastst\u00e4tte Kretscham",
                "lat": "51.0082970",
                "lng": "14.5978508",
                "author_name": "AndreJoosse",
                "terms": []
            }, {
                "object_name": "post",
                "object_id": "18271",
                "title": "Brikettfabrik Knappenrode",
                "lat": "51.3967400",
                "lng": "14.3271141",
                "author_name": "AndreJoosse",
                "terms": []
            }, {
                "object_name": "post",
                "object_id": "18218",
                "title": "Kammgarnspinnerei Gl\u00fccksbrunn",
                "lat": "50.8290977",
                "lng": "10.3411970",
                "author_name": "AndreJoosse",
                "terms": []
            }, {
                "object_name": "post",
                "object_id": "18146",
                "title": "Companhia de Celulose do Caima",
                "lat": "40.7362518",
                "lng": "-8.4622202",
                "author_name": "AndreJoosse",
                "terms": []
            }, {
                "object_name": "post",
                "object_id": "18004",
                "title": "Dongecentrale",
                "lat": "51.6950073",
                "lng": "4.8470001",
                "author_name": "AndreJoosse",
                "terms": []
            }, {
                "object_name": "post",
                "object_id": "17873",
                "title": "Ceres Cer\u00e2micas Reunidas S.A.",
                "lat": "40.2655449",
                "lng": "-8.4387913",
                "author_name": "AndreJoosse",
                "terms": []
            }, {
                "object_name": "post",
                "object_id": "19631",
                "title": "Cellatex",
                "lat": "50.1542244",
                "lng": "4.8238149",
                "author_name": "AndreJoosse",
                "terms": []
            }, {
                "object_name": "post",
                "object_id": "17844",
                "title": "Bekaert Hemiksem",
                "lat": "51.1357765",
                "lng": "4.3324480",
                "author_name": "AndreJoosse",
                "terms": []
            }, {
                "object_name": "post",
                "object_id": "17817",
                "title": "Infanterie-Schie\u00dfschule W\u00fcnsdorf",
                "lat": "52.1592636",
                "lng": "13.4809217",
                "author_name": "AndreJoosse",
                "terms": []
            }, {
                "object_name": "post",
                "object_id": "17774",
                "title": "Manufacture Franco-Belge de Tapis",
                "lat": "50.8061028",
                "lng": "3.1897449",
                "author_name": "AndreJoosse",
                "terms": []
            }, {
                "object_name": "post",
                "object_id": "17755",
                "title": "Steenbakkerij\u00a0Wienerberger Steendorp",
                "lat": "51.1237411",
                "lng": "4.2639279",
                "author_name": "AndreJoosse",
                "terms": []
            }, {
                "object_name": "post",
                "object_id": "17301",
                "title": "Schossberger-kast\u00e9ly",
                "lat": "47.6044426",
                "lng": "19.6011753",
                "author_name": "AndreJoosse",
                "terms": []
            }, {
                "object_name": "post",
                "object_id": "17274",
                "title": "Poceram Produtos Cer\u00e2micos",
                "lat": "40.1478615",
                "lng": "-8.4647560",
                "author_name": "AndreJoosse",
                "terms": []
            }, {
                "object_name": "post",
                "object_id": "17202",
                "title": "Kraftwerk Hirschfelde",
                "lat": "50.9376068",
                "lng": "14.8910465",
                "author_name": "AndreJoosse",
                "terms": []
            }, {
                "object_name": "post",
                "object_id": "17173",
                "title": "Beelitz-Heilst\u00e4tten Verwaltungs- und Nebengeb\u00e4ude",
                "lat": "52.2605972",
                "lng": "12.9288511",
                "author_name": "AndreJoosse",
                "terms": []
            }, {
                "object_name": "post",
                "object_id": "16963",
                "title": "Kelenf\u00f6ldi Er\u0151m\u0171",
                "lat": "47.4627113",
                "lng": "19.0531597",
                "author_name": "AndreJoosse",
                "terms": []
            }, {
                "object_name": "post",
                "object_id": "16933",
                "title": "Flugplatz Brand",
                "lat": "52.0374985",
                "lng": "13.7486115",
                "author_name": "AndreJoosse",
                "terms": []
            }, {
                "object_name": "post",
                "object_id": "17257",
                "title": "Ferienhotel Sachsenhof",
                "lat": "50.7951736",
                "lng": "13.6757288",
                "author_name": "AndreJoosse",
                "terms": []
            }, {
                "object_name": "post",
                "object_id": "16812",
                "title": "Royal Air Force Station Laarbruch",
                "lat": "51.6025009",
                "lng": "6.1400337",
                "author_name": "AndreJoosse",
                "terms": []
            }, {
                "object_name": "post",
                "object_id": "16553",
                "title": "Papierfabriek Louis De Naeyer",
                "lat": "51.0612831",
                "lng": "4.3646169",
                "author_name": "AndreJoosse",
                "terms": []
            }, {
                "object_name": "post",
                "object_id": "16419",
                "title": "Esterh\u00e1zy-kast\u00e9ly",
                "lat": "47.6464348",
                "lng": "18.3177185",
                "author_name": "AndreJoosse",
                "terms": []
            }, {
                "object_name": "post",
                "object_id": "16192",
                "title": "Circuit Reims-Gueux",
                "lat": "49.2540627",
                "lng": "3.9306710",
                "author_name": "AndreJoosse",
                "terms": []
            }, {
                "object_name": "post",
                "object_id": "16172",
                "title": "Chernobyl Power Plant",
                "lat": "51.3899765",
                "lng": "30.0944672",
                "author_name": "AndreJoosse",
                "terms": []
            }, {
                "object_name": "post",
                "object_id": "16138",
                "title": "Chernobyl-2",
                "lat": "50.9651031",
                "lng": "29.8092899",
                "author_name": "AndreJoosse",
                "terms": []
            }, {
                "object_name": "post",
                "object_id": "16097",
                "title": "Pripyat",
                "lat": "51.4045029",
                "lng": "30.0542336",
                "author_name": "AndreJoosse",
                "terms": []
            }, {
                "object_name": "post",
                "object_id": "15839",
                "title": "Ch\u00e2teau Grammaire",
                "lat": "50.9261093",
                "lng": "3.4516709",
                "author_name": "AndreJoosse",
                "terms": []
            }, {
                "object_name": "post",
                "object_id": "16393",
                "title": "Villa Vijfhuyzen",
                "lat": "50.9425735",
                "lng": "3.9959860",
                "author_name": "AndreJoosse",
                "terms": []
            }, {
                "object_name": "post",
                "object_id": "15743",
                "title": "\u00dajpesti Er\u0151m\u0171",
                "lat": "47.5545616",
                "lng": "19.1025829",
                "author_name": "AndreJoosse",
                "terms": []
            }, {
                "object_name": "post",
                "object_id": "18808",
                "title": "Semin\u00e1rio de Santa Teresinha",
                "lat": "41.3883972",
                "lng": "-8.2284088",
                "author_name": "AndreJoosse",
                "terms": []
            }, {
                "object_name": "post",
                "object_id": "15443",
                "title": "Expo \u201992",
                "lat": "37.4134712",
                "lng": "-5.9992633",
                "author_name": "AndreJoosse",
                "terms": []
            }, {
                "object_name": "post",
                "object_id": "15404",
                "title": "Laboratoire d\u2019Anatomie & Cytologie Pathologiques",
                "lat": "50.5820923",
                "lng": "5.8577590",
                "author_name": "AndreJoosse",
                "terms": []
            }, {
                "object_name": "post",
                "object_id": "15389",
                "title": "Feintuchwerke F.F. Koswig",
                "lat": "51.6287804",
                "lng": "13.6995592",
                "author_name": "AndreJoosse",
                "terms": []
            }, {
                "object_name": "post",
                "object_id": "15363",
                "title": "Centrale Idroelettrica Isola",
                "lat": "46.0647087",
                "lng": "10.4182682",
                "author_name": "AndreJoosse",
                "terms": []
            }, {
                "object_name": "post",
                "object_id": "15307",
                "title": "Clinique Le Valdor",
                "lat": "50.6328659",
                "lng": "5.5894022",
                "author_name": "AndreJoosse",
                "terms": []
            }, {
                "object_name": "post",
                "object_id": "14807",
                "title": "Zwembad Domein Hofstade",
                "lat": "50.9869461",
                "lng": "4.5109191",
                "author_name": "AndreJoosse",
                "terms": []
            }, {
                "object_name": "post",
                "object_id": "14397",
                "title": "Grand Hotel Prealpi",
                "lat": "45.8765335",
                "lng": "8.9157495",
                "author_name": "AndreJoosse",
                "terms": []
            }, {
                "object_name": "post",
                "object_id": "14103",
                "title": "Lever Zeep Maatschappij",
                "lat": "51.9005585",
                "lng": "4.3362732",
                "author_name": "AndreJoosse",
                "terms": []
            }, {
                "object_name": "post",
                "object_id": "13637",
                "title": "Het Goese Lyceum",
                "lat": "51.5000305",
                "lng": "3.8995509",
                "author_name": "AndreJoosse",
                "terms": []
            }, {
                "object_name": "post",
                "object_id": "10485",
                "title": "Sau\u00f0aneskirkja",
                "lat": "66.2446289",
                "lng": "-15.2608232",
                "author_name": "AndreJoosse",
                "terms": []
            }, {
                "object_name": "post",
                "object_id": "10467",
                "title": "\u00de\u00f3rshafnarflugv\u00f6llur",
                "lat": "66.2513275",
                "lng": "-15.2566566",
                "author_name": "AndreJoosse",
                "terms": []
            }, {
                "object_name": "post",
                "object_id": "10422",
                "title": "Samg\u00f6nguminjasafnsins Ystafelli",
                "lat": "65.7804642",
                "lng": "-17.5799637",
                "author_name": "AndreJoosse",
                "terms": []
            }, {
                "object_name": "post",
                "object_id": "10360",
                "title": "Villa Les Belles",
                "lat": "51.1746483",
                "lng": "4.1756597",
                "author_name": "AndreJoosse",
                "terms": []
            }, {
                "object_name": "post",
                "object_id": "11938",
                "title": "Lavoir et Carbonisage de Dolhain",
                "lat": "50.6143570",
                "lng": "5.9339089",
                "author_name": "AndreJoosse",
                "terms": []
            }, {
                "object_name": "post",
                "object_id": "11337",
                "title": "La F\u00e0brica de Teixits de La Mata de Pinyana",
                "lat": "41.7555656",
                "lng": "0.5874810",
                "author_name": "AndreJoosse",
                "terms": []
            }, {
                "object_name": "post",
                "object_id": "10274",
                "title": "Steenkoolmijn van Beringen",
                "lat": "51.0691414",
                "lng": "5.2222071",
                "author_name": "AndreJoosse",
                "terms": []
            }, {
                "object_name": "post",
                "object_id": "11323",
                "title": "La F\u00e1brica de Harinas Gualda",
                "lat": "41.6423416",
                "lng": "0.6180600",
                "author_name": "AndreJoosse",
                "terms": []
            }, {
                "object_name": "post",
                "object_id": "11283",
                "title": "Navo Satcom F1",
                "lat": "50.7720261",
                "lng": "4.1007380",
                "author_name": "AndreJoosse",
                "terms": []
            }, {
                "object_name": "post",
                "object_id": "11257",
                "title": "Paryshiv",
                "lat": "51.2820206",
                "lng": "30.3211651",
                "author_name": "AndreJoosse",
                "terms": []
            }, {
                "object_name": "post",
                "object_id": "15722",
                "title": "Kraftwerk Plessa",
                "lat": "51.4713364",
                "lng": "13.6115999",
                "author_name": "AndreJoosse",
                "terms": []
            }, {
                "object_name": "post",
                "object_id": "11213",
                "title": "Bouchonnerie Jos Morraye & Fils",
                "lat": "51.0482559",
                "lng": "3.7341039",
                "author_name": "AndreJoosse",
                "terms": []
            }, {
                "object_name": "post",
                "object_id": "16227",
                "title": "Loges Physiotherapieschule",
                "lat": "51.8739967",
                "lng": "10.5565863",
                "author_name": "AndreJoosse",
                "terms": []
            }, {
                "object_name": "post",
                "object_id": "15424",
                "title": "Pressstofffabrik R\u00f6mmler-Werken",
                "lat": "51.5741615",
                "lng": "14.3700037",
                "author_name": "AndreJoosse",
                "terms": []
            }, {
                "object_name": "post",
                "object_id": "15646",
                "title": "Rehaklinik Waldm\u00fchle",
                "lat": "51.8059921",
                "lng": "10.9176369",
                "author_name": "AndreJoosse",
                "terms": []
            }, {
                "object_name": "post",
                "object_id": "11158",
                "title": "Janovas",
                "lat": "42.4656029",
                "lng": "0.0000294",
                "author_name": "AndreJoosse",
                "terms": []
            }, {
                "object_name": "post",
                "object_id": "11091",
                "title": "Fabrica de Cemento de Xerallo",
                "lat": "42.3696632",
                "lng": "0.8651090",
                "author_name": "AndreJoosse",
                "terms": []
            }, {
                "object_name": "post",
                "object_id": "11073",
                "title": "Estaci\u00f3n Internacional de Canfranc",
                "lat": "42.7514496",
                "lng": "-0.5154314",
                "author_name": "AndreJoosse",
                "terms": []
            }, {
                "object_name": "post",
                "object_id": "14316",
                "title": "Gew\u00e4chsh\u00e4user der Zukunft",
                "lat": "50.7915955",
                "lng": "6.0812922",
                "author_name": "AndreJoosse",
                "terms": []
            }, {
                "object_name": "post",
                "object_id": "10766",
                "title": "Klooster Koningsbosch",
                "lat": "51.0521622",
                "lng": "5.9571829",
                "author_name": "AndreJoosse",
                "terms": []
            }, {
                "object_name": "post",
                "object_id": "10734",
                "title": "Maison Arbre",
                "lat": "50.9870415",
                "lng": "4.3167949",
                "author_name": "AndreJoosse",
                "terms": []
            }, {
                "object_name": "post",
                "object_id": "10751",
                "title": "Villa Hector",
                "lat": "50.8796921",
                "lng": "4.1651530",
                "author_name": "AndreJoosse",
                "terms": []
            }, {
                "object_name": "post",
                "object_id": "14417",
                "title": "Koninklijk Lyceum Tienen",
                "lat": "50.8116951",
                "lng": "4.9308629",
                "author_name": "AndreJoosse",
                "terms": []
            }, {
                "object_name": "post",
                "object_id": "21252",
                "title": "Sint-Jozef Rustoord",
                "lat": "50.7764206",
                "lng": "4.8922882",
                "author_name": "AndreJoosse",
                "terms": []
            }, {
                "object_name": "post",
                "object_id": "14286",
                "title": "Sauna Jona",
                "lat": "51.0428047",
                "lng": "4.8837328",
                "author_name": "AndreJoosse",
                "terms": []
            }, {
                "object_name": "post",
                "object_id": "10535",
                "title": "The Viking Film Set",
                "lat": "64.2606659",
                "lng": "-14.9843378",
                "author_name": "AndreJoosse",
                "terms": []
            }, {
                "object_name": "post",
                "object_id": "10309",
                "title": "Provinciale Normaalschool Tienen",
                "lat": "50.8146935",
                "lng": "4.9539328",
                "author_name": "AndreJoosse",
                "terms": []
            }, {
                "object_name": "post",
                "object_id": "12245",
                "title": "Ch\u00e2teau C\u00e9sar",
                "lat": "50.4922981",
                "lng": "5.1074319",
                "author_name": "AndreJoosse",
                "terms": []
            }, {
                "object_name": "post",
                "object_id": "12588",
                "title": "Eglise Saint-Pierre",
                "lat": "50.6384735",
                "lng": "5.4738402",
                "author_name": "AndreJoosse",
                "terms": []
            }, {
                "object_name": "post",
                "object_id": "10105",
                "title": "Fliegerhorst der Luftwaffe Zerbst",
                "lat": "51.9948387",
                "lng": "12.1283150",
                "author_name": "AndreJoosse",
                "terms": []
            }, {
                "object_name": "post",
                "object_id": "9992",
                "title": "Heeresversuchsanstalt Hillersleben",
                "lat": "52.2792702",
                "lng": "11.4859848",
                "author_name": "AndreJoosse",
                "terms": []
            }, {
                "object_name": "post",
                "object_id": "11199",
                "title": "Motor Technica Museum",
                "lat": "52.2031479",
                "lng": "8.8484077",
                "author_name": "AndreJoosse",
                "terms": []
            }, {
                "object_name": "post",
                "object_id": "10134",
                "title": "Bahnbetriebswerk J\u00fcterbog",
                "lat": "52.0066185",
                "lng": "13.0681391",
                "author_name": "AndreJoosse",
                "terms": []
            }, {
                "object_name": "post",
                "object_id": "10055",
                "title": "Artilleriekaserne J\u00fcterbog II",
                "lat": "52.0014267",
                "lng": "13.0410366",
                "author_name": "AndreJoosse",
                "terms": []
            }, {
                "object_name": "post",
                "object_id": "9941",
                "title": "Adolf Hitler Lager \u2013 Forst Zinna",
                "lat": "52.0564651",
                "lng": "13.1130018",
                "author_name": "AndreJoosse",
                "terms": []
            }, {
                "object_name": "post",
                "object_id": "9894",
                "title": "Gare Maritime Port de Boulogne",
                "lat": "50.7269516",
                "lng": "1.5961701",
                "author_name": "AndreJoosse",
                "terms": []
            }, {
                "object_name": "post",
                "object_id": "9814",
                "title": "La Peque\u00f1a Granja",
                "lat": "40.0577087",
                "lng": "-3.4872413",
                "author_name": "AndreJoosse",
                "terms": []
            }, {
                "object_name": "post",
                "object_id": "9798",
                "title": "Fabrica de H\u00e1rina de Pantoja",
                "lat": "40.0305099",
                "lng": "-3.8266897",
                "author_name": "AndreJoosse",
                "terms": []
            }, {
                "object_name": "post",
                "object_id": "9772",
                "title": "Fresno de Torote",
                "lat": "40.5921440",
                "lng": "-3.4124362",
                "author_name": "AndreJoosse",
                "terms": []
            }, {
                "object_name": "post",
                "object_id": "9690",
                "title": "Sanatorio de Tuberculosos de la Marina",
                "lat": "40.7124786",
                "lng": "-4.0827765",
                "author_name": "AndreJoosse",
                "terms": []
            }, {
                "object_name": "post",
                "object_id": "9736",
                "title": "Oreja",
                "lat": "40.0493546",
                "lng": "-3.4820943",
                "author_name": "AndreJoosse",
                "terms": []
            }, {
                "object_name": "post",
                "object_id": "9639",
                "title": "Hospital de Tuberculosos de La Tablada",
                "lat": "40.7052689",
                "lng": "-4.1270199",
                "author_name": "AndreJoosse",
                "terms": []
            }, {
                "object_name": "post",
                "object_id": "9622",
                "title": "Sanatorio de La Barranca",
                "lat": "40.7445984",
                "lng": "-4.0007992",
                "author_name": "AndreJoosse",
                "terms": []
            }, {
                "object_name": "post",
                "object_id": "9585",
                "title": "Cin\u00e9 Studio Leuven",
                "lat": "50.8757286",
                "lng": "4.7113881",
                "author_name": "AndreJoosse",
                "terms": []
            }, {
                "object_name": "post",
                "object_id": "9560",
                "title": "Algemeen Burger Gasthuis",
                "lat": "51.4917717",
                "lng": "4.2914782",
                "author_name": "AndreJoosse",
                "terms": []
            }, {
                "object_name": "post",
                "object_id": "9462",
                "title": "Kirner Hartsteinwerke Albert Pfeiffer",
                "lat": "49.7910385",
                "lng": "7.4625010",
                "author_name": "AndreJoosse",
                "terms": []
            }, {
                "object_name": "post",
                "object_id": "9401",
                "title": "Freibad Kammerwoog",
                "lat": "49.6991768",
                "lng": "7.3136091",
                "author_name": "AndreJoosse",
                "terms": []
            }, {
                "object_name": "post",
                "object_id": "9347",
                "title": "V\u00f6lklinger H\u00fctte",
                "lat": "49.2486763",
                "lng": "6.8440509",
                "author_name": "AndreJoosse",
                "terms": []
            }, {
                "object_name": "post",
                "object_id": "9288",
                "title": "Autobus Brainois",
                "lat": "50.6113892",
                "lng": "4.1400900",
                "author_name": "AndreJoosse",
                "terms": []
            }, {
                "object_name": "post",
                "object_id": "9330",
                "title": "Eglise de Ombret",
                "lat": "50.5446472",
                "lng": "5.3364038",
                "author_name": "AndreJoosse",
                "terms": []
            }, {
                "object_name": "post",
                "object_id": "9008",
                "title": "Sanatorium des Bas-Buissons Dreux",
                "lat": "48.7581139",
                "lng": "1.3352895",
                "author_name": "AndreJoosse",
                "terms": []
            }, {
                "object_name": "post",
                "object_id": "11113",
                "title": "Salle des F\u00eates Jeusette",
                "lat": "50.6076279",
                "lng": "5.5364270",
                "author_name": "AndreJoosse",
                "terms": []
            }, {
                "object_name": "post",
                "object_id": "9087",
                "title": "Halte Royal d\u2019Ardenne",
                "lat": "50.1999664",
                "lng": "4.9992132",
                "author_name": "AndreJoosse",
                "terms": []
            }, {
                "object_name": "post",
                "object_id": "8903",
                "title": "Textilwerke Palla \u2013 Werk IV\/1",
                "lat": "50.8208923",
                "lng": "12.5335627",
                "author_name": "AndreJoosse",
                "terms": []
            }, {
                "object_name": "post",
                "object_id": "8750",
                "title": "Albrechtshaus",
                "lat": "51.6421547",
                "lng": "10.9251671",
                "author_name": "AndreJoosse",
                "terms": []
            }, {
                "object_name": "post",
                "object_id": "10662",
                "title": "Sint-Wivinaklooster",
                "lat": "50.8700142",
                "lng": "4.2460389",
                "author_name": "AndreJoosse",
                "terms": []
            }, {
                "object_name": "post",
                "object_id": "7858",
                "title": "Catherine Press Brugge",
                "lat": "51.2249794",
                "lng": "3.2034550",
                "author_name": "AndreJoosse",
                "terms": []
            }, {
                "object_name": "post",
                "object_id": "7838",
                "title": "Tour & Taxis",
                "lat": "50.8639908",
                "lng": "4.3450065",
                "author_name": "AndreJoosse",
                "terms": []
            }, {
                "object_name": "post",
                "object_id": "11179",
                "title": "Hospice des Vieillards de Nivelles",
                "lat": "50.5957985",
                "lng": "4.3145299",
                "author_name": "AndreJoosse",
                "terms": []
            }, {
                "object_name": "post",
                "object_id": "10932",
                "title": "Cinema Rex",
                "lat": "49.4757385",
                "lng": "5.9576840",
                "author_name": "AndreJoosse",
                "terms": []
            }, {
                "object_name": "post",
                "object_id": "7000",
                "title": "Nato Satcom",
                "lat": "51.9527588",
                "lng": "4.8505611",
                "author_name": "AndreJoosse",
                "terms": []
            }, {
                "object_name": "post",
                "object_id": "11057",
                "title": "Hotel Beau Coin",
                "lat": "49.9320297",
                "lng": "5.9396820",
                "author_name": "AndreJoosse",
                "terms": []
            }, {
                "object_name": "post",
                "object_id": "6938",
                "title": "Bottelarij Geens Benelux",
                "lat": "50.9832573",
                "lng": "4.8305392",
                "author_name": "AndreJoosse",
                "terms": []
            }, {
                "object_name": "post",
                "object_id": "10720",
                "title": "\u00c9cole Notre Dame",
                "lat": "50.9076424",
                "lng": "4.2033730",
                "author_name": "AndreJoosse",
                "terms": []
            }, {
                "object_name": "post",
                "object_id": "7488",
                "title": "Bahnbetriebswerk Leipzig-Wahren",
                "lat": "51.3897171",
                "lng": "12.3049507",
                "author_name": "AndreJoosse",
                "terms": []
            }, {
                "object_name": "post",
                "object_id": "7353",
                "title": "Bahnbetriebsgel\u00e4nde Chemnitz-Hilbersdorf",
                "lat": "50.8557396",
                "lng": "12.9431257",
                "author_name": "AndreJoosse",
                "terms": []
            }, {
                "object_name": "post",
                "object_id": "6619",
                "title": "Forges de Clabecq",
                "lat": "50.6826706",
                "lng": "4.2204528",
                "author_name": "AndreJoosse",
                "terms": []
            }, {
                "object_name": "post",
                "object_id": "6593",
                "title": "Kunstzij Steenbergen",
                "lat": "51.5827560",
                "lng": "4.3195291",
                "author_name": "AndreJoosse",
                "terms": []
            }, {
                "object_name": "post",
                "object_id": "6558",
                "title": "Premetro Antwerpen",
                "lat": "51.2126236",
                "lng": "4.4480948",
                "author_name": "AndreJoosse",
                "terms": []
            }, {
                "object_name": "post",
                "object_id": "7293",
                "title": "Hippodrome de Groenendaal",
                "lat": "50.7610931",
                "lng": "4.4375172",
                "author_name": "AndreJoosse",
                "terms": []
            }, {
                "object_name": "post",
                "object_id": "6488",
                "title": "Ch\u00e2tillon Car Graveyard",
                "lat": "49.6239510",
                "lng": "5.6913929",
                "author_name": "AndreJoosse",
                "terms": []
            }, {
                "object_name": "post",
                "object_id": "7169",
                "title": "Radio Kootwijk",
                "lat": "52.1763878",
                "lng": "5.8325000",
                "author_name": "AndreJoosse",
                "terms": []
            }, {
                "object_name": "post",
                "object_id": "6270",
                "title": "Sinai Centrum Amersfoort",
                "lat": "52.1358032",
                "lng": "5.3629198",
                "author_name": "AndreJoosse",
                "terms": []
            }, {
                "object_name": "post",
                "object_id": "6203",
                "title": "Herring Factory Ing\u00f3lfsfj\u00f6r\u00f0ur",
                "lat": "66.0236893",
                "lng": "-21.6306934",
                "author_name": "AndreJoosse",
                "terms": []
            }, {
                "object_name": "post",
                "object_id": "6187",
                "title": "Gar\u00f0ar BA 64",
                "lat": "65.5166855",
                "lng": "-23.8376217",
                "author_name": "AndreJoosse",
                "terms": []
            }, {
                "object_name": "post",
                "object_id": "10623",
                "title": "Klooster Leyselehof",
                "lat": "51.1755257",
                "lng": "3.2227161",
                "author_name": "AndreJoosse",
                "terms": []
            }, {
                "object_name": "post",
                "object_id": "5930",
                "title": "Sint Vincentius Ziekenhuis",
                "lat": "51.2056503",
                "lng": "4.4134202",
                "author_name": "AndreJoosse",
                "terms": []
            }, {
                "object_name": "post",
                "object_id": "5835",
                "title": "School voor Grafische en Plastische Kunsten",
                "lat": "51.0882454",
                "lng": "4.3685288",
                "author_name": "AndreJoosse",
                "terms": []
            }, {
                "object_name": "post",
                "object_id": "5765",
                "title": "Wittock-Van Landeghem",
                "lat": "51.1321793",
                "lng": "4.2107401",
                "author_name": "AndreJoosse",
                "terms": []
            }, {
                "object_name": "post",
                "object_id": "5668",
                "title": "Villa Sint Marie",
                "lat": "51.1582527",
                "lng": "4.1207252",
                "author_name": "AndreJoosse",
                "terms": []
            }, {
                "object_name": "post",
                "object_id": "10549",
                "title": "Maison Clercx",
                "lat": "51.1854553",
                "lng": "5.3840718",
                "author_name": "AndreJoosse",
                "terms": []
            }, {
                "object_name": "post",
                "object_id": "5531",
                "title": "Camping De Heidepol",
                "lat": "51.4938850",
                "lng": "4.3532372",
                "author_name": "AndreJoosse",
                "terms": []
            }, {
                "object_name": "post",
                "object_id": "5804",
                "title": "KTA Herentals",
                "lat": "51.1783562",
                "lng": "4.8264160",
                "author_name": "AndreJoosse",
                "terms": []
            }, {
                "object_name": "post",
                "object_id": "5429",
                "title": "Altes Lager",
                "lat": "52.0199890",
                "lng": "12.9933748",
                "author_name": "AndreJoosse",
                "terms": []
            }, {
                "object_name": "post",
                "object_id": "5351",
                "title": "Timmerfabriek De Schelde",
                "lat": "51.4462357",
                "lng": "3.5827811",
                "author_name": "AndreJoosse",
                "terms": []
            }, {
                "object_name": "post",
                "object_id": "5319",
                "title": "Bedrijfsschool De Schelde",
                "lat": "51.4484673",
                "lng": "3.5838549",
                "author_name": "AndreJoosse",
                "terms": []
            }, {
                "object_name": "post",
                "object_id": "5301",
                "title": "Zware Plaatwerkerij De Schelde",
                "lat": "51.4446754",
                "lng": "3.5747809",
                "author_name": "AndreJoosse",
                "terms": []
            }, {
                "object_name": "post",
                "object_id": "5278",
                "title": "Machinefabriek De Schelde",
                "lat": "51.4455261",
                "lng": "3.5788410",
                "author_name": "AndreJoosse",
                "terms": []
            }, {
                "object_name": "post",
                "object_id": "5223",
                "title": "TU Delft: Natuurkunde, Elektrotechniek en Technische Physica",
                "lat": "52.0075035",
                "lng": "4.3670392",
                "author_name": "AndreJoosse",
                "terms": []
            }, {
                "object_name": "post",
                "object_id": "5197",
                "title": "Rusthuis voor Bejaarden Sint-Antonius",
                "lat": "51.0536690",
                "lng": "4.1061859",
                "author_name": "AndreJoosse",
                "terms": []
            }, {
                "object_name": "post",
                "object_id": "5129",
                "title": "Kasteel van Mesen",
                "lat": "50.9675674",
                "lng": "3.9853959",
                "author_name": "AndreJoosse",
                "terms": []
            }, {
                "object_name": "post",
                "object_id": "5105",
                "title": "Beelitz-Heilst\u00e4tten M\u00e4nnersanatorium",
                "lat": "52.2588692",
                "lng": "12.9287910",
                "author_name": "AndreJoosse",
                "terms": []
            }, {
                "object_name": "post",
                "object_id": "5082",
                "title": "Zentralbadeanstalt Beelitz-Heilst\u00e4tten",
                "lat": "52.2573357",
                "lng": "12.9295559",
                "author_name": "AndreJoosse",
                "terms": []
            }, {
                "object_name": "post",
                "object_id": "5065",
                "title": "Beelitz-Heilst\u00e4tten Chirurgie",
                "lat": "52.2654419",
                "lng": "12.9157925",
                "author_name": "AndreJoosse",
                "terms": []
            }, {
                "object_name": "post",
                "object_id": "5046",
                "title": "Beelitz-Heilst\u00e4tten Frauen Lungenheilst\u00e4tte",
                "lat": "52.2643661",
                "lng": "12.9198074",
                "author_name": "AndreJoosse",
                "terms": []
            }, {
                "object_name": "post",
                "object_id": "5006",
                "title": "Beelitz-Heilst\u00e4tten M\u00e4nner Lungenheilst\u00e4tte",
                "lat": "52.2664032",
                "lng": "12.9247074",
                "author_name": "AndreJoosse",
                "terms": []
            }, {
                "object_name": "post",
                "object_id": "4985",
                "title": "Steenbakkerijen Frateur",
                "lat": "51.0952606",
                "lng": "4.3488669",
                "author_name": "AndreJoosse",
                "terms": []
            }, {
                "object_name": "post",
                "object_id": "4919",
                "title": "M\u00e9tro L\u00e9ger Charleroi, ligne Ch\u00e2telet",
                "lat": "50.4074745",
                "lng": "4.4941092",
                "author_name": "AndreJoosse",
                "terms": []
            }, {
                "object_name": "post",
                "object_id": "4832",
                "title": "Spreepark Pl\u00e4nterwald",
                "lat": "52.4863281",
                "lng": "13.4890699",
                "author_name": "AndreJoosse",
                "terms": []
            }, {
                "object_name": "post",
                "object_id": "4775",
                "title": "Mattenkot",
                "lat": "50.9279556",
                "lng": "4.4225750",
                "author_name": "AndreJoosse",
                "terms": []
            }, {
                "object_name": "post",
                "object_id": "4597",
                "title": "Douane Station Essen",
                "lat": "51.4636917",
                "lng": "4.4492302",
                "author_name": "AndreJoosse",
                "terms": []
            }, {
                "object_name": "post",
                "object_id": "4474",
                "title": "Kasteel Ter Meeren",
                "lat": "50.8554497",
                "lng": "4.5087500",
                "author_name": "AndreJoosse",
                "terms": []
            }, {
                "object_name": "post",
                "object_id": "4394",
                "title": "Ceramic Welkenraedt",
                "lat": "50.6661339",
                "lng": "5.9646311",
                "author_name": "AndreJoosse",
                "terms": []
            }, {
                "object_name": "post",
                "object_id": "4363",
                "title": "Hoedhaar Lokeren",
                "lat": "51.0984688",
                "lng": "3.9936299",
                "author_name": "AndreJoosse",
                "terms": []
            }, {
                "object_name": "post",
                "object_id": "4342",
                "title": "Serviceresidentie Ter Zee Wenduine",
                "lat": "51.2961884",
                "lng": "3.0794001",
                "author_name": "AndreJoosse",
                "terms": []
            }, {
                "object_name": "post",
                "object_id": "4256",
                "title": "Zwembad De Schalk",
                "lat": "51.0600204",
                "lng": "4.3442650",
                "author_name": "AndreJoosse",
                "terms": []
            }, {
                "object_name": "post",
                "object_id": "4071",
                "title": "Olympisches Dorf Berlin",
                "lat": "52.5397911",
                "lng": "13.0128517",
                "author_name": "AndreJoosse",
                "terms": []
            }, {
                "object_name": "post",
                "object_id": "4013",
                "title": "Checkpoint Alpha: Grenz\u00fcbergangsstelle Marienborn",
                "lat": "52.2147980",
                "lng": "11.0837002",
                "author_name": "AndreJoosse",
                "terms": []
            }, {
                "object_name": "post",
                "object_id": "3868",
                "title": "Stoomtreinen Baasrode",
                "lat": "51.0284843",
                "lng": "4.1767612",
                "author_name": "AndreJoosse",
                "terms": []
            }, {
                "object_name": "post",
                "object_id": "3760",
                "title": "Vakantiepark Hotel Kosmos",
                "lat": "50.7875023",
                "lng": "2.7613330",
                "author_name": "AndreJoosse",
                "terms": []
            }, {
                "object_name": "post",
                "object_id": "3700",
                "title": "Mortuarium Schoonselhof",
                "lat": "51.1685066",
                "lng": "4.3707638",
                "author_name": "AndreJoosse",
                "terms": []
            }, {
                "object_name": "post",
                "object_id": "3571",
                "title": "SAFEA",
                "lat": "50.4902191",
                "lng": "4.1759062",
                "author_name": "AndreJoosse",
                "terms": []
            }, {
                "object_name": "post",
                "object_id": "3513",
                "title": "Provinciaal Ziekenhuis Santpoort",
                "lat": "52.4187775",
                "lng": "4.6199961",
                "author_name": "AndreJoosse",
                "terms": []
            }, {
                "object_name": "post",
                "object_id": "3361",
                "title": "Tissage de la Li\u00e8ve d\u2019Eecloo",
                "lat": "51.1799202",
                "lng": "3.5685799",
                "author_name": "AndreJoosse",
                "terms": []
            }, {
                "object_name": "post",
                "object_id": "3328",
                "title": "Boulonnerie Bo\u00ebl",
                "lat": "50.4863434",
                "lng": "4.1650162",
                "author_name": "AndreJoosse",
                "terms": []
            }, {
                "object_name": "post",
                "object_id": "3293",
                "title": "Transfo Zwevegem",
                "lat": "50.8128471",
                "lng": "3.3539810",
                "author_name": "AndreJoosse",
                "terms": []
            }, {
                "object_name": "post",
                "object_id": "3266",
                "title": "Villa Branca",
                "lat": "45.9498367",
                "lng": "8.9412441",
                "author_name": "AndreJoosse",
                "terms": []
            }, {
                "object_name": "post",
                "object_id": "3217",
                "title": "Militair Hospitaal Antwerpen",
                "lat": "51.2023201",
                "lng": "4.4233012",
                "author_name": "AndreJoosse",
                "terms": []
            }, {
                "object_name": "post",
                "object_id": "3171",
                "title": "Saunaclub Relax",
                "lat": "51.1967468",
                "lng": "5.2262368",
                "author_name": "AndreJoosse",
                "terms": []
            }, {
                "object_name": "post",
                "object_id": "3151",
                "title": "Dossche Deinze",
                "lat": "50.9861183",
                "lng": "3.5196400",
                "author_name": "AndreJoosse",
                "terms": []
            }, {
                "object_name": "post",
                "object_id": "3105",
                "title": "Ateliers de R\u00e9parations et Chantiers B\u00e9liard Crighton & Co",
                "lat": "51.2166481",
                "lng": "2.9463999",
                "author_name": "AndreJoosse",
                "terms": []
            }, {
                "object_name": "post",
                "object_id": "3069",
                "title": "Heeresbekleidungsamt Bernau",
                "lat": "52.6671486",
                "lng": "13.5768938",
                "author_name": "AndreJoosse",
                "terms": []
            }, {
                "object_name": "post",
                "object_id": "3049",
                "title": "Charbonnage d\u2019Argenteau-Trembleur",
                "lat": "50.6864967",
                "lng": "5.7220688",
                "author_name": "AndreJoosse",
                "terms": []
            }, {
                "object_name": "post",
                "object_id": "2993",
                "title": "AvanG Schoenen",
                "lat": "51.5435867",
                "lng": "5.1825538",
                "author_name": "AndreJoosse",
                "terms": []
            }, {
                "object_name": "post",
                "object_id": "2974",
                "title": "Marien-Finaspan",
                "lat": "51.0230598",
                "lng": "4.4704080",
                "author_name": "AndreJoosse",
                "terms": []
            }, {
                "object_name": "post",
                "object_id": "2945",
                "title": "Scheepswerf Van Praet-Van Damme",
                "lat": "51.0367317",
                "lng": "4.1670299",
                "author_name": "AndreJoosse",
                "terms": []
            }, {
                "object_name": "post",
                "object_id": "2892",
                "title": "De Zijpe",
                "lat": "51.2353859",
                "lng": "4.4047842",
                "author_name": "AndreJoosse",
                "terms": []
            }, {
                "object_name": "post",
                "object_id": "2874",
                "title": "Montevideo Magazijnen",
                "lat": "51.2331848",
                "lng": "4.4045401",
                "author_name": "AndreJoosse",
                "terms": []
            }, {
                "object_name": "post",
                "object_id": "2851",
                "title": "Kinderopvang Duinen-heide",
                "lat": "50.9923248",
                "lng": "5.5725069",
                "author_name": "AndreJoosse",
                "terms": []
            }, {
                "object_name": "post",
                "object_id": "2806",
                "title": "Steenbakkerij Lauwers",
                "lat": "51.0938911",
                "lng": "4.3515811",
                "author_name": "AndreJoosse",
                "terms": []
            }, {
                "object_name": "post",
                "object_id": "2778",
                "title": "Sinteranlage Duisburg",
                "lat": "51.4739876",
                "lng": "6.7507348",
                "author_name": "AndreJoosse",
                "terms": []
            }, {
                "object_name": "post",
                "object_id": "2746",
                "title": "Fort de la Chartreuse",
                "lat": "50.6326485",
                "lng": "5.5967979",
                "author_name": "AndreJoosse",
                "terms": []
            }, {
                "object_name": "post",
                "object_id": "2710",
                "title": "Universit\u00e9 Val-Beno\u00eet",
                "lat": "50.6150169",
                "lng": "5.5744190",
                "author_name": "AndreJoosse",
                "terms": []
            }, {
                "object_name": "post",
                "object_id": "2659",
                "title": "Institut Henri Jaspar",
                "lat": "50.8212090",
                "lng": "4.4889722",
                "author_name": "AndreJoosse",
                "terms": []
            }, {
                "object_name": "post",
                "object_id": "2632",
                "title": "Tanneries H. Schotte & Fils",
                "lat": "50.9265594",
                "lng": "4.0519500",
                "author_name": "AndreJoosse",
                "terms": []
            }, {
                "object_name": "post",
                "object_id": "2611",
                "title": "NV Bonneterie Bosteels\u2013De Smeth",
                "lat": "50.9284782",
                "lng": "4.0496898",
                "author_name": "AndreJoosse",
                "terms": []
            }, {
                "object_name": "post",
                "object_id": "2481",
                "title": "Brouwerij Den Hoorn",
                "lat": "50.8871765",
                "lng": "4.6993022",
                "author_name": "AndreJoosse",
                "terms": []
            }, {
                "object_name": "post",
                "object_id": "2436",
                "title": "Dadipark",
                "lat": "50.8533554",
                "lng": "3.0950689",
                "author_name": "AndreJoosse",
                "terms": []
            }, {
                "object_name": "post",
                "object_id": "2367",
                "title": "Nadelfabrik Singer",
                "lat": "50.8232269",
                "lng": "6.1318750",
                "author_name": "AndreJoosse",
                "terms": []
            }, {
                "object_name": "post",
                "object_id": "2347",
                "title": "Montzen Gare",
                "lat": "50.7197723",
                "lng": "5.9573050",
                "author_name": "AndreJoosse",
                "terms": []
            }, {
                "object_name": "post",
                "object_id": "2314",
                "title": "Gare de Hombourg",
                "lat": "50.7236099",
                "lng": "5.9121571",
                "author_name": "AndreJoosse",
                "terms": []
            }, {
                "object_name": "post",
                "object_id": "2295",
                "title": "Jutespinnerij en Twijnderij Filature du Rabot",
                "lat": "51.0664597",
                "lng": "3.7094300",
                "author_name": "AndreJoosse",
                "terms": []
            }, {
                "object_name": "post",
                "object_id": "2268",
                "title": "CZAV Silo Zierikzee",
                "lat": "51.6473427",
                "lng": "3.9317100",
                "author_name": "AndreJoosse",
                "terms": []
            }, {
                "object_name": "post",
                "object_id": "2238",
                "title": "Baronie-De Heer Chocolade",
                "lat": "52.1346970",
                "lng": "4.6503239",
                "author_name": "AndreJoosse",
                "terms": []
            }, {
                "object_name": "post",
                "object_id": "2171",
                "title": "Filature Ernest De Porre",
                "lat": "51.0280495",
                "lng": "3.7584100",
                "author_name": "AndreJoosse",
                "terms": []
            }, {
                "object_name": "post",
                "object_id": "2147",
                "title": "Lorette Klooster",
                "lat": "51.0273170",
                "lng": "4.4768481",
                "author_name": "AndreJoosse",
                "terms": []
            }, {
                "object_name": "post",
                "object_id": "2126",
                "title": "Het Zegel Mechelen",
                "lat": "51.0175095",
                "lng": "4.4785070",
                "author_name": "AndreJoosse",
                "terms": []
            }, {
                "object_name": "post",
                "object_id": "2099",
                "title": "Malterie de Boortmeerbeek",
                "lat": "50.9668350",
                "lng": "4.5718122",
                "author_name": "AndreJoosse",
                "terms": []
            }, {
                "object_name": "post",
                "object_id": "2074",
                "title": "Boortmalt Malting",
                "lat": "50.9810867",
                "lng": "4.5740399",
                "author_name": "AndreJoosse",
                "terms": []
            }, {
                "object_name": "post",
                "object_id": "2053",
                "title": "Station Antwerpen-Dokken en -Stapelplaatsen",
                "lat": "51.2304230",
                "lng": "4.4146481",
                "author_name": "AndreJoosse",
                "terms": []
            }, {
                "object_name": "post",
                "object_id": "2014",
                "title": "Brepols Printing",
                "lat": "51.3233490",
                "lng": "4.9519601",
                "author_name": "AndreJoosse",
                "terms": []
            }, {
                "object_name": "post",
                "object_id": "1978",
                "title": "Anco Pasta",
                "lat": "51.3271255",
                "lng": "4.9336171",
                "author_name": "AndreJoosse",
                "terms": []
            }, {
                "object_name": "post",
                "object_id": "1922",
                "title": "Technische School Linkeroever",
                "lat": "51.2243118",
                "lng": "4.3821039",
                "author_name": "AndreJoosse",
                "terms": []
            }, {
                "object_name": "post",
                "object_id": "1817",
                "title": "Plateau van Caestert",
                "lat": "50.7949982",
                "lng": "5.6906190",
                "author_name": "AndreJoosse",
                "terms": []
            }, {
                "object_name": "post",
                "object_id": "1772",
                "title": "Holz",
                "lat": "51.0899162",
                "lng": "6.4647141",
                "author_name": "AndreJoosse",
                "terms": []
            }, {
                "object_name": "post",
                "object_id": "1707",
                "title": "Dossche Zolder",
                "lat": "50.9980164",
                "lng": "5.2393479",
                "author_name": "AndreJoosse",
                "terms": []
            }, {
                "object_name": "post",
                "object_id": "1669",
                "title": "Filature De Leie",
                "lat": "50.7517471",
                "lng": "3.6053190",
                "author_name": "AndreJoosse",
                "terms": []
            }, {
                "object_name": "post",
                "object_id": "1629",
                "title": "Den Belga",
                "lat": "51.2366676",
                "lng": "4.4351592",
                "author_name": "AndreJoosse",
                "terms": []
            }, {
                "object_name": "post",
                "object_id": "1609",
                "title": "Werkplaats Dieseltractie Antwerpen-Noord",
                "lat": "51.2304764",
                "lng": "4.4262252",
                "author_name": "AndreJoosse",
                "terms": []
            }, {
                "object_name": "post",
                "object_id": "1588",
                "title": "Kliniek St Maria",
                "lat": "50.8570213",
                "lng": "2.7246599",
                "author_name": "AndreJoosse",
                "terms": []
            }, {
                "object_name": "post",
                "object_id": "1563",
                "title": "Rubberfabriek Saiag",
                "lat": "51.0403366",
                "lng": "3.7396090",
                "author_name": "AndreJoosse",
                "terms": []
            }, {
                "object_name": "post",
                "object_id": "1514",
                "title": "Kortrijkse Textiel Maatschappij",
                "lat": "50.8286819",
                "lng": "3.3025420",
                "author_name": "AndreJoosse",
                "terms": []
            }, {
                "object_name": "post",
                "object_id": "1476",
                "title": "Johns-Manville Balmatt",
                "lat": "51.2238998",
                "lng": "5.1115360",
                "author_name": "AndreJoosse",
                "terms": []
            }, {
                "object_name": "post",
                "object_id": "1380",
                "title": "Fort Ellewoutsdijk",
                "lat": "51.3863258",
                "lng": "3.8128619",
                "author_name": "AndreJoosse",
                "terms": []
            }, {
                "object_name": "post",
                "object_id": "1349",
                "title": "Henkel Herent",
                "lat": "50.9036102",
                "lng": "4.6664758",
                "author_name": "AndreJoosse",
                "terms": []
            }, {
                "object_name": "post",
                "object_id": "1302",
                "title": "Grand Moulins de Paris",
                "lat": "50.6719284",
                "lng": "3.0596111",
                "author_name": "AndreJoosse",
                "terms": []
            }, {
                "object_name": "post",
                "object_id": "1275",
                "title": "Quartiere delle Rose",
                "lat": "45.3419876",
                "lng": "9.1875257",
                "author_name": "AndreJoosse",
                "terms": []
            }, {
                "object_name": "post",
                "object_id": "1257",
                "title": "Arnger\u00f0areyri Farm",
                "lat": "65.8846283",
                "lng": "-22.3788280",
                "author_name": "AndreJoosse",
                "terms": []
            }, {
                "object_name": "post",
                "object_id": "1219",
                "title": "Droste Cacao",
                "lat": "52.3866577",
                "lng": "4.6501589",
                "author_name": "AndreJoosse",
                "terms": []
            }, {
                "object_name": "post",
                "object_id": "1195",
                "title": "Blauwselfabriek Jacob Avis",
                "lat": "52.4563179",
                "lng": "4.7753868",
                "author_name": "AndreJoosse",
                "terms": []
            }, {
                "object_name": "post",
                "object_id": "1177",
                "title": "Verlipack Jumet",
                "lat": "50.4410896",
                "lng": "4.4239941",
                "author_name": "AndreJoosse",
                "terms": []
            }, {
                "object_name": "post",
                "object_id": "1127",
                "title": "Den Ammoniak",
                "lat": "51.0689697",
                "lng": "4.3505349",
                "author_name": "AndreJoosse",
                "terms": []
            }, {
                "object_name": "post",
                "object_id": "1107",
                "title": "Home RTT",
                "lat": "51.1397705",
                "lng": "2.7068300",
                "author_name": "AndreJoosse",
                "terms": []
            }, {
                "object_name": "post",
                "object_id": "1090",
                "title": "Petroleum Zuid",
                "lat": "51.1988831",
                "lng": "4.3525400",
                "author_name": "AndreJoosse",
                "terms": []
            }, {
                "object_name": "post",
                "object_id": "1029",
                "title": "Association Cooperative Z\u00e9landaise de Carbonisation",
                "lat": "51.2812805",
                "lng": "3.8421941",
                "author_name": "AndreJoosse",
                "terms": []
            }, {
                "object_name": "post",
                "object_id": "978",
                "title": "H\u00f4pital du Valdor",
                "lat": "50.6342354",
                "lng": "5.5897880",
                "author_name": "AndreJoosse",
                "terms": []
            }, {
                "object_name": "post",
                "object_id": "925",
                "title": "Homburg Conserven",
                "lat": "51.7262077",
                "lng": "5.8737330",
                "author_name": "AndreJoosse",
                "terms": []
            }, {
                "object_name": "post",
                "object_id": "908",
                "title": "Anciens Etablissements Alsberghe & Van Oost",
                "lat": "51.0547028",
                "lng": "3.6892331",
                "author_name": "AndreJoosse",
                "terms": []
            }, {
                "object_name": "post",
                "object_id": "893",
                "title": "PSD Zeeland",
                "lat": "51.4371796",
                "lng": "4.0328941",
                "author_name": "AndreJoosse",
                "terms": []
            }, {
                "object_name": "post",
                "object_id": "10038",
                "title": "Krankzinnigenbegraafplaats Rekem",
                "lat": "50.9252892",
                "lng": "5.6657538",
                "author_name": "AndreJoosse",
                "terms": []
            }, {
                "object_name": "post",
                "object_id": "10155",
                "title": "Reichsbahnausbesserungswerk Salbke",
                "lat": "52.0814743",
                "lng": "11.6640759",
                "author_name": "AndreJoosse",
                "terms": []
            }, {
                "object_name": "post",
                "object_id": "9757",
                "title": "El Palacio de Osuna de Aranjuez",
                "lat": "40.0364265",
                "lng": "-3.6016121",
                "author_name": "AndreJoosse",
                "terms": []
            }, {
                "object_name": "post",
                "object_id": "9828",
                "title": "Ecole Provinciale Des M\u00e9tiers",
                "lat": "50.7223282",
                "lng": "4.3896332",
                "author_name": "AndreJoosse",
                "terms": []
            }, {
                "object_name": "post",
                "object_id": "9715",
                "title": "Medisch Instituut van Menen",
                "lat": "50.8129768",
                "lng": "3.1196630",
                "author_name": "AndreJoosse",
                "terms": []
            }, {
                "object_name": "post",
                "object_id": "9542",
                "title": "Bowling De Witte Molen",
                "lat": "51.0017967",
                "lng": "4.8346429",
                "author_name": "AndreJoosse",
                "terms": []
            }, {
                "object_name": "post",
                "object_id": "10332",
                "title": "H\u00f4pital G\u00e9riatrique du Bois d\u2019Havre",
                "lat": "50.4557228",
                "lng": "4.0071931",
                "author_name": "AndreJoosse",
                "terms": []
            }, {
                "object_name": "post",
                "object_id": "10575",
                "title": "Freinetschool Kasteel De Wip",
                "lat": "50.9432030",
                "lng": "4.7608280",
                "author_name": "AndreJoosse",
                "terms": []
            }, {
                "object_name": "post",
                "object_id": "9213",
                "title": "Ecole Communale Roi Albert",
                "lat": "50.4467926",
                "lng": "3.8949080",
                "author_name": "AndreJoosse",
                "terms": []
            }, {
                "object_name": "post",
                "object_id": "9098",
                "title": "Brasserie-malterie Hazard Paul",
                "lat": "50.1249237",
                "lng": "3.9320960",
                "author_name": "AndreJoosse",
                "terms": []
            }, {
                "object_name": "post",
                "object_id": "9027",
                "title": "Rusthuis De Witte Lelie",
                "lat": "51.0720024",
                "lng": "4.8823562",
                "author_name": "AndreJoosse",
                "terms": []
            }, {
                "object_name": "post",
                "object_id": "9113",
                "title": "Clinique Maternit\u00e9",
                "lat": "50.1249352",
                "lng": "3.9314630",
                "author_name": "AndreJoosse",
                "terms": []
            }, {
                "object_name": "post",
                "object_id": "8886",
                "title": "Marmorpalast Chemnitz",
                "lat": "50.8343506",
                "lng": "12.8838139",
                "author_name": "AndreJoosse",
                "terms": []
            }, {
                "object_name": "post",
                "object_id": "8922",
                "title": "Hotel J\u00e4gerstein",
                "lat": "50.7055016",
                "lng": "10.7278795",
                "author_name": "AndreJoosse",
                "terms": []
            }, {
                "object_name": "post",
                "object_id": "8777",
                "title": "Sanatorium Waldhaus",
                "lat": "51.6062546",
                "lng": "10.6868725",
                "author_name": "AndreJoosse",
                "terms": []
            }, {
                "object_name": "post",
                "object_id": "8813",
                "title": "Vigognespinnerei Gebr\u00fcder Roth",
                "lat": "50.7199516",
                "lng": "12.3787422",
                "author_name": "AndreJoosse",
                "terms": []
            }, {
                "object_name": "post",
                "object_id": "8763",
                "title": "Sanatorium Hohentanneck",
                "lat": "51.6068153",
                "lng": "10.6817513",
                "author_name": "AndreJoosse",
                "terms": []
            }, {
                "object_name": "post",
                "object_id": "8791",
                "title": "Zwirnerei Sachsenring Glauchau",
                "lat": "50.7860107",
                "lng": "12.3753357",
                "author_name": "AndreJoosse",
                "terms": []
            }, {
                "object_name": "post",
                "object_id": "8560",
                "title": "Heilanstalten Milbitz",
                "lat": "50.8957558",
                "lng": "12.0568333",
                "author_name": "AndreJoosse",
                "terms": []
            }, {
                "object_name": "post",
                "object_id": "8535",
                "title": "Grandhotel Heinrich Heine",
                "lat": "51.7633209",
                "lng": "10.6705132",
                "author_name": "AndreJoosse",
                "terms": []
            }, {
                "object_name": "post",
                "object_id": "8419",
                "title": "Bundeswehrkrankenhaus Detmold",
                "lat": "51.9332657",
                "lng": "8.8877068",
                "author_name": "AndreJoosse",
                "terms": []
            }, {
                "object_name": "post",
                "object_id": "8459",
                "title": "Co\u00f6peratieve Aardappelmeelfabriek Ter Apel en Omstreken",
                "lat": "52.8676605",
                "lng": "7.0887070",
                "author_name": "AndreJoosse",
                "terms": []
            }, {
                "object_name": "post",
                "object_id": "8385",
                "title": "Karl von M\u00fcller Kaserne",
                "lat": "53.3819275",
                "lng": "7.2086430",
                "author_name": "AndreJoosse",
                "terms": []
            }, {
                "object_name": "post",
                "object_id": "8228",
                "title": "Campus Sint Lucas",
                "lat": "51.2709236",
                "lng": "4.4485302",
                "author_name": "AndreJoosse",
                "terms": []
            }, {
                "object_name": "post",
                "object_id": "8306",
                "title": "Passionistenklooster Hagelstein",
                "lat": "51.0545616",
                "lng": "4.5438619",
                "author_name": "AndreJoosse",
                "terms": []
            }, {
                "object_name": "post",
                "object_id": "8322",
                "title": "Alfaflex Mechelen",
                "lat": "51.0290222",
                "lng": "4.4991851",
                "author_name": "AndreJoosse",
                "terms": []
            }, {
                "object_name": "post",
                "object_id": "8259",
                "title": "Haut Fourneau 4",
                "lat": "50.4089661",
                "lng": "4.4230418",
                "author_name": "AndreJoosse",
                "terms": []
            }, {
                "object_name": "post",
                "object_id": "8087",
                "title": "Cotonificio Cantoni di Castellanza",
                "lat": "45.6164932",
                "lng": "8.8995152",
                "author_name": "AndreJoosse",
                "terms": []
            }, {
                "object_name": "post",
                "object_id": "7994",
                "title": "Cotonificio Roberto Ferrari",
                "lat": "45.6149178",
                "lng": "9.8990383",
                "author_name": "AndreJoosse",
                "terms": []
            }, {
                "object_name": "post",
                "object_id": "7975",
                "title": "Acciaierie e Ferriere di Crema P. Stramezzi",
                "lat": "45.3681908",
                "lng": "9.6932659",
                "author_name": "AndreJoosse",
                "terms": []
            }, {
                "object_name": "post",
                "object_id": "8206",
                "title": "Linificio Canapificio Nazionale",
                "lat": "45.5322495",
                "lng": "9.5278625",
                "author_name": "AndreJoosse",
                "terms": []
            }, {
                "object_name": "post",
                "object_id": "8187",
                "title": "Castello Nuovo di Rovasenda",
                "lat": "45.5349312",
                "lng": "8.3169718",
                "author_name": "AndreJoosse",
                "terms": []
            }, {
                "object_name": "post",
                "object_id": "8029",
                "title": "Cementificio Pesenti",
                "lat": "45.7351952",
                "lng": "9.7392302",
                "author_name": "AndreJoosse",
                "terms": []
            }, {
                "object_name": "post",
                "object_id": "8130",
                "title": "Cartiera Vita Mayer",
                "lat": "45.6922226",
                "lng": "8.8780165",
                "author_name": "AndreJoosse",
                "terms": []
            }, {
                "object_name": "post",
                "object_id": "7915",
                "title": "Vuylsteke Gieterijen",
                "lat": "50.9474487",
                "lng": "3.1006560",
                "author_name": "AndreJoosse",
                "terms": []
            }, {
                "object_name": "post",
                "object_id": "7822",
                "title": "Skytech Helicopters",
                "lat": "51.2294579",
                "lng": "3.2184811",
                "author_name": "AndreJoosse",
                "terms": []
            }, {
                "object_name": "post",
                "object_id": "7802",
                "title": "Pr\u00e9ventorium Pour Enfants de Dolhain",
                "lat": "50.6115074",
                "lng": "5.9237390",
                "author_name": "AndreJoosse",
                "terms": []
            }, {
                "object_name": "post",
                "object_id": "7695",
                "title": "Couvent de Gensterbloem",
                "lat": "50.6899643",
                "lng": "5.9071770",
                "author_name": "AndreJoosse",
                "terms": []
            }, {
                "object_name": "post",
                "object_id": "7641",
                "title": "Laminoir de Montignies",
                "lat": "50.3966675",
                "lng": "4.4906659",
                "author_name": "AndreJoosse",
                "terms": []
            }, {
                "object_name": "post",
                "object_id": "7472",
                "title": "Bezirkskrankenhaus \u2013 Klinik Stadtpark",
                "lat": "50.8022881",
                "lng": "12.9070187",
                "author_name": "AndreJoosse",
                "terms": []
            }, {
                "object_name": "post",
                "object_id": "7434",
                "title": "Fliegerhorst Brandis-Waldpolenz",
                "lat": "51.3282700",
                "lng": "12.6557684",
                "author_name": "AndreJoosse",
                "terms": []
            }, {
                "object_name": "post",
                "object_id": "7622",
                "title": "Robotron B\u00fcrotechnik Karl-Marx-Stadt",
                "lat": "50.8202171",
                "lng": "12.8831711",
                "author_name": "AndreJoosse",
                "terms": []
            }, {
                "object_name": "post",
                "object_id": "7405",
                "title": "Knappschaftsheilst\u00e4tte S\u00fclzhayn",
                "lat": "51.6199455",
                "lng": "10.7044439",
                "author_name": "AndreJoosse",
                "terms": []
            }, {
                "object_name": "post",
                "object_id": "7386",
                "title": "Brau- und Malzkombinat Sternburg",
                "lat": "51.3845100",
                "lng": "12.2822275",
                "author_name": "AndreJoosse",
                "terms": []
            }, {
                "object_name": "post",
                "object_id": "7657",
                "title": "Hembrug",
                "lat": "52.4220238",
                "lng": "4.8309350",
                "author_name": "AndreJoosse",
                "terms": []
            }, {
                "object_name": "post",
                "object_id": "7523",
                "title": "K\u00f6nig Friedrich-August Kaserne",
                "lat": "50.8705597",
                "lng": "12.9483051",
                "author_name": "AndreJoosse",
                "terms": []
            }, {
                "object_name": "post",
                "object_id": "7504",
                "title": "Verlade- und Transportanlagen Adolf Bleichert & Co",
                "lat": "51.3629837",
                "lng": "12.3761492",
                "author_name": "AndreJoosse",
                "terms": []
            }, {
                "object_name": "post",
                "object_id": "7309",
                "title": "Villa Josephine",
                "lat": "51.0936852",
                "lng": "3.6168001",
                "author_name": "AndreJoosse",
                "terms": []
            }, {
                "object_name": "post",
                "object_id": "7195",
                "title": "Wintercircus Mahy",
                "lat": "51.0483246",
                "lng": "3.7279160",
                "author_name": "AndreJoosse",
                "terms": []
            }, {
                "object_name": "post",
                "object_id": "7147",
                "title": "Boerderij Willeke",
                "lat": "50.8107948",
                "lng": "5.4257479",
                "author_name": "AndreJoosse",
                "terms": []
            }, {
                "object_name": "post",
                "object_id": "7128",
                "title": "Heilanstalt Eichhof",
                "lat": "51.9330597",
                "lng": "8.5381117",
                "author_name": "AndreJoosse",
                "terms": []
            }, {
                "object_name": "post",
                "object_id": "7106",
                "title": "Marien Hospital Kirchh\u00f6rde",
                "lat": "51.4601746",
                "lng": "7.4530811",
                "author_name": "AndreJoosse",
                "terms": []
            }, {
                "object_name": "post",
                "object_id": "6894",
                "title": "KWE Stahl- Und Industriebau",
                "lat": "50.8192482",
                "lng": "6.9899569",
                "author_name": "AndreJoosse",
                "terms": []
            }, {
                "object_name": "post",
                "object_id": "6871",
                "title": "Deutsche Norton",
                "lat": "50.8165436",
                "lng": "6.9908252",
                "author_name": "AndreJoosse",
                "terms": []
            }, {
                "object_name": "post",
                "object_id": "6460",
                "title": "Centrale d\u2019Oxyg\u00e8ne Liquide",
                "lat": "49.4832802",
                "lng": "5.9658289",
                "author_name": "AndreJoosse",
                "terms": []
            }, {
                "object_name": "post",
                "object_id": "6434",
                "title": "Centrale Thermique Terres Rouges",
                "lat": "49.4917259",
                "lng": "5.9713788",
                "author_name": "AndreJoosse",
                "terms": []
            },